[
  {
    "type": "Fixed Camera",
    "location": "A4 Bath Rd, nr jct Flowers Hill, Brislington (was 'Supertune' site)",
    "speed_limit": "30mph",
    "camera_label": null,
    "site_id": "10100015",
    "latitude": 51.4337475,
    "longitude": -2.5487539,
    "formatted_address": "A4 Bath Rd, Brislington, Bristol BS4 5AD, UK",
    "geocode_status": "OK"
  },
  {
    "type": "Fixed Camera",
    "location": "A4 Bath Road, nr jct Kensington Park Road, Brislington (was 'Monument' site)",
    "speed_limit": "30mph",
    "camera_label": null,
    "site_id": "10100018",
    "latitude": 51.435944,
    "longitude": -2.5573588,
    "formatted_address": "Kensington Park Rd, Brislington, Bristol BS4, UK",
    "geocode_status": "OK"
  },
  {
    "type": "Fixed Camera",
    "location": "A4 Bath Road, nr jct Tramway Road, Bristol (was 'PDSA' site)",
    "speed_limit": "30mph",
    "camera_label": null,
    "site_id": "10100009",
    "latitude": 51.4388543,
    "longitude": -2.5569572,
    "formatted_address": "Tramway Rd, Brislington, Bristol BS4, UK",
    "geocode_status": "OK"
  },
  {
    "type": "Fixed Camera",
    "location": "A4 Hotwells Rd",
    "speed_limit": "30mph",
    "camera_label": null,
    "site_id": "10100028",
    "latitude": 51.4549339,
    "longitude": -2.6270094,
    "formatted_address": "A4 & Hotwell Rd, Bristol BS3 2JX, UK",
    "geocode_status": "OK"
  },
  {
    "type": "Fixed Camera",
    "location": "A4 Portway (Eastbound), nr jct Woodwell Road, Shirehampton",
    "speed_limit": "40mph",
    "camera_label": null,
    "site_id": "10100058",
    "latitude": 51.4864355,
    "longitude": -2.6738586,
    "formatted_address": "Woodwell Rd, Shirehampton, Bristol BS11, UK",
    "geocode_status": "OK"
  },
  {
    "type": "Fixed Camera",
    "location": "A4 Portway (Westbound), nr jct Woodwell Road, Shirehampton",
    "speed_limit": "40mph",
    "camera_label": null,
    "site_id": "10100059",
    "latitude": 51.4864355,
    "longitude": -2.6738586,
    "formatted_address": "Woodwell Rd, Shirehampton, Bristol BS11, UK",
    "geocode_status": "OK"
  },
  {
    "type": "Fixed Camera",
    "location": "A4018 Westbury Road, Nr Jct Downs Road, Westbury on Trym",
    "speed_limit": "30mph",
    "camera_label": null,
    "site_id": "10100048",
    "latitude": 51.4879024,
    "longitude": -2.6172389,
    "formatted_address": "A4018 & Westbury Road, Bristol BS9 3TX, UK",
    "geocode_status": "OK"
  },
  {
    "type": "Fixed Camera",
    "location": "B3122 St John's Lane, nr jct Littleton Road, Bedminster",
    "speed_limit": "30mph",
    "camera_label": null,
    "site_id": "10100006",
    "latitude": 51.4355982,
    "longitude": -2.5929789,
    "formatted_address": "Littleton Rd, Bedminster, Bristol BS3, UK",
    "geocode_status": "OK"
  },
  {
    "type": "Fixed Camera",
    "location": "Filton Avenue, nr jct Beatrix Place, Northville, Filton",
    "speed_limit": "30mph",
    "camera_label": null,
    "site_id": "10100004",
    "latitude": 51.4976543,
    "longitude": -2.5713082,
    "formatted_address": "Beatrix Pl, Bristol BS7, UK",
    "geocode_status": "OK"
  },
  {
    "type": "Fixed Camera",
    "location": "M32, Severn Beach rail line overbridge to end of motorway southbound (MetroBus lane)",
    "speed_limit": "40mph",
    "camera_label": null,
    "site_id": "900",
    "latitude": 51.489407,
    "longitude": -2.5483538,
    "formatted_address": "M32, Bristol, UK",
    "geocode_status": "OK"
  },
  {
    "type": "Mobile Enforcement",
    "location": "A3029 Winterstoke Road, Bristol (nr 82 Winterstoke Road)",
    "speed_limit": "30mph",
    "camera_label": null,
    "site_id": "243",
    "latitude": 51.43472310000001,
    "longitude": -2.6149547,
    "formatted_address": "82 Winterstoke Rd, Bristol BS3 2NY, UK",
    "geocode_status": "OK"
  },
  {
    "type": "Mobile Enforcement",
    "location": "A37 Bristol Road, Bristol",
    "speed_limit": "30mph",
    "camera_label": null,
    "site_id": "2091",
    "latitude": 51.4112894,
    "longitude": -2.5587722,
    "formatted_address": "A37 & Bristol Rd, Bristol BS14 0PE, UK",
    "geocode_status": "OK"
  },
  {
    "type": "Mobile Enforcement",
    "location": "A37 Wells Road, Hengrove, Bristol",
    "speed_limit": "30mph",
    "camera_label": null,
    "site_id": "3084",
    "latitude": 51.4112894,
    "longitude": -2.5587722,
    "formatted_address": "A37 & Wells Rd, Bristol BS14 0PE, UK",
    "geocode_status": "OK"
  },
  {
    "type": "Mobile Enforcement",
    "location": "A370 Coronation Road, Southville",
    "speed_limit": "30mph",
    "camera_label": null,
    "site_id": "3251",
    "latitude": 51.4443593,
    "longitude": -2.6165773,
    "formatted_address": "A370 & Coronation Rd, Bristol BS3 1RN, UK",
    "geocode_status": "OK"
  },
  {
    "type": "Mobile Enforcement",
    "location": "A38 Cheltenham Road, Bristol",
    "speed_limit": "20mph",
    "camera_label": null,
    "site_id": "4144",
    "latitude": 51.4642524,
    "longitude": -2.589674,
    "formatted_address": "A38 & Cheltenham Rd, St Paul's, Bristol BS6 5NH, UK",
    "geocode_status": "OK"
  },
  {
    "type": "Mobile Enforcement",
    "location": "A38 Gloucester Road, Bristol",
    "speed_limit": "20mph",
    "camera_label": null,
    "site_id": "4178",
    "latitude": 51.4704174,
    "longitude": -2.5936891,
    "formatted_address": "A38 & Gloucester Rd, Redland, Bristol BS7 8AE, UK",
    "geocode_status": "OK"
  },
  {
    "type": "Mobile Enforcement",
    "location": "A38 Rupert Street/Bridewell Street/The Haymarket, Bristol (outside The Bridewell Police Station)",
    "speed_limit": "20mph",
    "camera_label": null,
    "site_id": "212",
    "latitude": 51.4575052,
    "longitude": -2.5933689,
    "formatted_address": "The Bridewell, One Bridewell Street, Bridewell St, Bristol BS1 2AA, UK",
    "geocode_status": "OK"
  },
  {
    "type": "Mobile Enforcement",
    "location": "A4 Bath Rd, Totterdown, Bristol",
    "speed_limit": "30mph",
    "camera_label": null,
    "site_id": "3102",
    "latitude": 51.4613415,
    "longitude": -2.6298232,
    "formatted_address": "A4, Bristol, UK",
    "geocode_status": "OK"
  },
  {
    "type": "Mobile Enforcement",
    "location": "A4 Bath Road, Hicks Gate",
    "speed_limit": "40mph",
    "camera_label": null,
    "site_id": "3153",
    "latitude": 51.4262232,
    "longitude": -2.5243761,
    "formatted_address": "A4 & Hicks Gate, Brislington, Bristol BS31 2AD, UK",
    "geocode_status": "OK"
  },
  {
    "type": "Mobile Enforcement",
    "location": "A4 Brislington Hill, nr Runnymead Avenue",
    "speed_limit": "30mph",
    "camera_label": null,
    "site_id": "401",
    "latitude": 51.4307398,
    "longitude": -2.5439732,
    "formatted_address": "A4 & Brislington Hill, Brislington, Bristol BS4 5NL, UK",
    "geocode_status": "OK"
  },
  {
    "type": "Mobile Enforcement",
    "location": "A4 Portway Nr Roman Way",
    "speed_limit": "40mph",
    "camera_label": null,
    "site_id": "183",
    "latitude": 51.480202,
    "longitude": -2.6441169,
    "formatted_address": "Roman Way, Bristol BS9, UK",
    "geocode_status": "OK"
  },
  {
    "type": "Mobile Enforcement",
    "location": "A4 Portway Nr Sylvan Way/Riverleaze",
    "speed_limit": "40mph",
    "camera_label": null,
    "site_id": "145",
    "latitude": 51.481964,
    "longitude": -2.649434,
    "formatted_address": "Riverleaze, Bristol BS9 2HS, UK",
    "geocode_status": "OK"
  },
  {
    "type": "Mobile Enforcement",
    "location": "A4 Portway junc Barrow Hill Rd",
    "speed_limit": "30mph",
    "camera_label": null,
    "site_id": "150",
    "latitude": 51.4896283,
    "longitude": -2.6844966,
    "formatted_address": "Barrow Hill Rd, Shirehampton, Bristol BS11, UK",
    "geocode_status": "OK"
  },
  {
    "type": "Mobile Enforcement",
    "location": "A4 Portway near Hung Road",
    "speed_limit": "40mph",
    "camera_label": null,
    "site_id": "151",
    "latitude": 51.4847428,
    "longitude": -2.6767263,
    "formatted_address": "Hung Rd, Shirehampton, Bristol BS11, UK",
    "geocode_status": "OK"
  },
  {
    "type": "Mobile Enforcement",
    "location": "A4 Portway, near Gateway to Water Works Building",
    "speed_limit": "50mph",
    "camera_label": null,
    "site_id": "4140",
    "latitude": 51.4934976,
    "longitude": -2.6890357,
    "formatted_address": "A4 & Portway, Avonmouth, Bristol BS11 9NT, UK",
    "geocode_status": "OK"
  },
  {
    "type": "Mobile Enforcement",
    "location": "A4 Portway, nr Portview Road",
    "speed_limit": "30mph",
    "camera_label": null,
    "site_id": "2014",
    "latitude": 51.4934976,
    "longitude": -2.6890357,
    "formatted_address": "A4 & Portway, Avonmouth, Bristol BS11 9NT, UK",
    "geocode_status": "OK"
  },
  {
    "type": "Mobile Enforcement",
    "location": "A4018 Falcondale Rd, Westbury on Trym",
    "speed_limit": "30mph",
    "camera_label": null,
    "site_id": "109",
    "latitude": 51.4982339,
    "longitude": -2.6164082,
    "formatted_address": "A4018 & Falcondale Road, Bristol BS10 6AU, UK",
    "geocode_status": "OK"
  },
  {
    "type": "Mobile Enforcement",
    "location": "A4018 Whiteladies Road, Clifton",
    "speed_limit": "20mph",
    "camera_label": null,
    "site_id": "4200",
    "latitude": 51.4579031,
    "longitude": -2.609091,
    "formatted_address": "A4018 & Whiteladies Road, Clifton, Bristol BS8 1PD, UK",
    "geocode_status": "OK"
  },
  {
    "type": "Mobile Enforcement",
    "location": "A403 St Andrews Road, Avonmouth",
    "speed_limit": "40mph",
    "camera_label": null,
    "site_id": "172",
    "latitude": 51.5210926,
    "longitude": -2.6912492,
    "formatted_address": "A403 & Saint Andrew's Road, Avonmouth, Bristol BS11 8AT, UK",
    "geocode_status": "OK"
  },
  {
    "type": "Mobile Enforcement",
    "location": "A4162 Canford Lane",
    "speed_limit": "30mph",
    "camera_label": null,
    "site_id": "160",
    "latitude": 51.4944731,
    "longitude": -2.6334578,
    "formatted_address": "Canford Lane & A4162, Bristol BS9 3PH, UK",
    "geocode_status": "OK"
  },
  {
    "type": "Mobile Enforcement",
    "location": "A4162 Sylvan Way/Dingle Rd/Canford Lane",
    "speed_limit": "30mph",
    "camera_label": null,
    "site_id": "61",
    "latitude": 51.4921519,
    "longitude": -2.6432829,
    "formatted_address": "Sylvan Wy & Dingle Rd, Bristol BS9 2JF, UK",
    "geocode_status": "OK"
  },
  {
    "type": "Mobile Enforcement",
    "location": "A4174 Airport Road, Bristol",
    "speed_limit": "30mph",
    "camera_label": null,
    "site_id": "2435",
    "latitude": 51.42757410000001,
    "longitude": -2.5638504,
    "formatted_address": "A4174 & Airport Rd, Bristol BS14 9AL, UK",
    "geocode_status": "OK"
  },
  {
    "type": "Mobile Enforcement",
    "location": "A4174 Callington Road, Brislington, Bristol",
    "speed_limit": "30mph",
    "camera_label": null,
    "site_id": "3193",
    "latitude": 51.4286937,
    "longitude": -2.5612104,
    "formatted_address": "A4174 & Callington Rd, Brislington, Bristol BS14 9AE, UK",
    "geocode_status": "OK"
  },
  {
    "type": "Mobile Enforcement",
    "location": "A4174 Hengrove Way, nr Lakeshore Drive, Bristol",
    "speed_limit": "40mph",
    "camera_label": null,
    "site_id": "368",
    "latitude": 51.41334200000001,
    "longitude": -2.603466,
    "formatted_address": "Lakeshore Drive, Bristol BS13 7TA, UK",
    "geocode_status": "OK"
  },
  {
    "type": "Mobile Enforcement",
    "location": "A4174 Hengrove Way, nr Whitland Avenue, Bristol",
    "speed_limit": "30mph",
    "camera_label": null,
    "site_id": "369",
    "latitude": 51.4137328,
    "longitude": -2.6066167,
    "formatted_address": "Whitland Ave, Bristol BS13, UK",
    "geocode_status": "OK"
  },
  {
    "type": "Mobile Enforcement",
    "location": "A4174 King Georges Road, Bristol",
    "speed_limit": "30mph",
    "camera_label": null,
    "site_id": "347",
    "latitude": 51.4111262,
    "longitude": -2.6194892,
    "formatted_address": "A4174 & King Georges Rd, Bishopsworth, Bristol BS13 8LT, UK",
    "geocode_status": "OK"
  },
  {
    "type": "Mobile Enforcement",
    "location": "A4174 Ring Road",
    "speed_limit": "70mph",
    "camera_label": null,
    "site_id": "3211",
    "latitude": 51.4316168,
    "longitude": -2.5491067,
    "formatted_address": "A4174, Bristol, UK",
    "geocode_status": "OK"
  },
  {
    "type": "Mobile Enforcement",
    "location": "A420 Bell Hill Road/Two Mile Hill Road, St George",
    "speed_limit": "30mph",
    "camera_label": null,
    "site_id": "3048",
    "latitude": 51.4610925,
    "longitude": -2.5288465,
    "formatted_address": "Bell Hill Rd & A420, Bristol BS5 7NH, UK",
    "geocode_status": "OK"
  },
  {
    "type": "Mobile Enforcement",
    "location": "A420 Church Road, St George, Bristol",
    "speed_limit": "20mph",
    "camera_label": null,
    "site_id": "2431",
    "latitude": 51.46051019999999,
    "longitude": -2.5430782,
    "formatted_address": "A420 & Church Rd, Bristol BS5 7FL, UK",
    "geocode_status": "OK"
  },
  {
    "type": "Mobile Enforcement",
    "location": "A431 Air Balloon Road",
    "speed_limit": "30mph",
    "camera_label": null,
    "site_id": "121",
    "latitude": 51.458662,
    "longitude": -2.5331671,
    "formatted_address": "A431 & Air Balloon Road, Bristol BS5 8LB, UK",
    "geocode_status": "OK"
  },
  {
    "type": "Mobile Enforcement",
    "location": "A431 Nags Head Hill",
    "speed_limit": "30mph",
    "camera_label": null,
    "site_id": "177",
    "latitude": 51.45424939999999,
    "longitude": -2.5260013,
    "formatted_address": "A431 & Nags Head Hill, Bristol BS5 8QP, UK",
    "geocode_status": "OK"
  },
  {
    "type": "Mobile Enforcement",
    "location": "A432 Downend Road, Fishponds",
    "speed_limit": "20mph",
    "camera_label": null,
    "site_id": "352",
    "latitude": 51.481815,
    "longitude": -2.5237199,
    "formatted_address": "A432 & Downend Road, Bristol BS16 5AA, UK",
    "geocode_status": "OK"
  },
  {
    "type": "Mobile Enforcement",
    "location": "A432 Fishponds Road, Easton (nr jct Freemantle Road)",
    "speed_limit": "20mph",
    "camera_label": null,
    "site_id": "231",
    "latitude": 51.47355,
    "longitude": -2.5588534,
    "formatted_address": "Freemantle Rd, Eastville, Bristol BS5, UK",
    "geocode_status": "OK"
  },
  {
    "type": "Mobile Enforcement",
    "location": "Allison Rd, Brislington (opposite Sherwell Road)",
    "speed_limit": "30mph",
    "camera_label": null,
    "site_id": "2006",
    "latitude": 51.4376849,
    "longitude": -2.5474136,
    "formatted_address": "Sherwell Rd, Brislington, Bristol BS4, UK",
    "geocode_status": "OK"
  },
  {
    "type": "Mobile Enforcement",
    "location": "Allison Road, Brislington, Bristol",
    "speed_limit": "20mph",
    "camera_label": null,
    "site_id": "4149",
    "latitude": 51.4398494,
    "longitude": -2.545507,
    "formatted_address": "Allison Rd, Brislington, Bristol BS4, UK",
    "geocode_status": "OK"
  },
  {
    "type": "Mobile Enforcement",
    "location": "Angers Road, Bristol",
    "speed_limit": "20mph",
    "camera_label": null,
    "site_id": "2413",
    "latitude": 51.4425839,
    "longitude": -2.5768434,
    "formatted_address": "Angers Rd, Totterdown, Bristol BS4, UK",
    "geocode_status": "OK"
  },
  {
    "type": "Mobile Enforcement",
    "location": "Argyle Road, Mayfield Park",
    "speed_limit": "30mph",
    "camera_label": null,
    "site_id": "154",
    "latitude": 51.4707028,
    "longitude": -2.5272057,
    "formatted_address": "Argyle Rd & Mayfield Park S, Bristol BS16 3NF, UK",
    "geocode_status": "OK"
  },
  {
    "type": "Mobile Enforcement",
    "location": "Ashley Hill, Monpelier",
    "speed_limit": "20mph",
    "camera_label": null,
    "site_id": "272",
    "latitude": 51.4698392,
    "longitude": -2.5800789,
    "formatted_address": "Ashley Hill, Montpelier, Bristol, UK",
    "geocode_status": "OK"
  },
  {
    "type": "Mobile Enforcement",
    "location": "Ashton Road, Bristol",
    "speed_limit": "20mph",
    "camera_label": null,
    "site_id": "374",
    "latitude": 51.4414553,
    "longitude": -2.6205771,
    "formatted_address": "Ashton Rd, Ashton Gate, Bristol BS3, UK",
    "geocode_status": "OK"
  },
  {
    "type": "Mobile Enforcement",
    "location": "Avonmouth Way, Avonmouth",
    "speed_limit": "30mph",
    "camera_label": null,
    "site_id": "294",
    "latitude": 51.5024293,
    "longitude": -2.6829685,
    "formatted_address": "Avonmouth Way, Avonmouth, Bristol BS11, UK",
    "geocode_status": "OK"
  },
  {
    "type": "Mobile Enforcement",
    "location": "B3119 West Town Lane, Bristol (nr Primary School)",
    "speed_limit": "20mph",
    "camera_label": null,
    "site_id": "242",
    "latitude": 51.4287786,
    "longitude": -2.5525247,
    "formatted_address": "B3119 & West Town Lane, Brislington, Bristol BS4 5DL, UK",
    "geocode_status": "OK"
  },
  {
    "type": "Mobile Enforcement",
    "location": "B3122 Bedminster Road",
    "speed_limit": "20mph",
    "camera_label": null,
    "site_id": "422",
    "latitude": 51.4321996,
    "longitude": -2.6062508,
    "formatted_address": "B3122 & Bedminster Road, Bristol BS3 5NL, UK",
    "geocode_status": "OK"
  },
  {
    "type": "Mobile Enforcement",
    "location": "B3122 Redcatch Road, Knowle",
    "speed_limit": "20mph",
    "camera_label": null,
    "site_id": "3054",
    "latitude": 51.4351892,
    "longitude": -2.5689954,
    "formatted_address": "B3122 & Redcatch Road, Knowle, Bristol BS4 2EP, UK",
    "geocode_status": "OK"
  },
  {
    "type": "Mobile Enforcement",
    "location": "B3122 Redcatch Road, Knowle, Bristol",
    "speed_limit": "30mph",
    "camera_label": null,
    "site_id": "3108",
    "latitude": 51.4351892,
    "longitude": -2.5689954,
    "formatted_address": "B3122 & Redcatch Road, Knowle, Bristol BS4 2EP, UK",
    "geocode_status": "OK"
  },
  {
    "type": "Mobile Enforcement",
    "location": "B4048 Lodge Causeway",
    "speed_limit": "20mph",
    "camera_label": null,
    "site_id": "4147",
    "latitude": 51.4705717,
    "longitude": -2.5202581,
    "formatted_address": "Lodge Causeway & B4048, Bristol BS15 1LS, UK",
    "geocode_status": "OK"
  },
  {
    "type": "Mobile Enforcement",
    "location": "B4048 Lodge Hill/Lodge Road, Speedwell, Bristol",
    "speed_limit": "20mph",
    "camera_label": null,
    "site_id": "2381",
    "latitude": 51.4700628,
    "longitude": -2.5340774,
    "formatted_address": "Holly Lodge Cl & Holly Lodge Rd, Speedwell, Bristol BS5 7UD, UK",
    "geocode_status": "OK"
  },
  {
    "type": "Mobile Enforcement",
    "location": "B4052 Ashley Down Road, Bristol",
    "speed_limit": "20mph",
    "camera_label": null,
    "site_id": "298",
    "latitude": 51.4795194,
    "longitude": -2.5808263,
    "formatted_address": "Ashley Down Rd, Bristol BS7, UK",
    "geocode_status": "OK"
  },
  {
    "type": "Mobile Enforcement",
    "location": "B4054 Avonmouth Rd, Bristol",
    "speed_limit": "30mph",
    "camera_label": null,
    "site_id": "164",
    "latitude": 51.49535760000001,
    "longitude": -2.6834483,
    "formatted_address": "Avonmouth Road & B4054, Shirehampton, Bristol BS11 9NE, UK",
    "geocode_status": "OK"
  },
  {
    "type": "Mobile Enforcement",
    "location": "B4054 Cranbrook Road, Redland, Bristol",
    "speed_limit": "20mph",
    "camera_label": null,
    "site_id": "167",
    "latitude": 51.470259,
    "longitude": -2.594214,
    "formatted_address": "B4054 & Cranbrook Road, Redland, Bristol BS6 7AE, UK",
    "geocode_status": "OK"
  },
  {
    "type": "Mobile Enforcement",
    "location": "B4054 Shirehampton Rd, Sea Mills",
    "speed_limit": "30mph",
    "camera_label": null,
    "site_id": "57",
    "latitude": 51.4879742,
    "longitude": -2.6479758,
    "formatted_address": "B4054 & Shirehampton Road, Bristol BS9 2DY, UK",
    "geocode_status": "OK"
  },
  {
    "type": "Mobile Enforcement",
    "location": "B4054 Shirehampton Road",
    "speed_limit": "30mph",
    "camera_label": null,
    "site_id": "156",
    "latitude": 51.4879742,
    "longitude": -2.6479758,
    "formatted_address": "B4054 & Shirehampton Road, Bristol BS9 2DY, UK",
    "geocode_status": "OK"
  },
  {
    "type": "Mobile Enforcement",
    "location": "B4055 Station Road, Henbury",
    "speed_limit": "20mph",
    "camera_label": null,
    "site_id": "345",
    "latitude": 51.5118298,
    "longitude": -2.629222,
    "formatted_address": "Station Road & B4055, Henbury, Bristol BS10 7LY, UK",
    "geocode_status": "OK"
  },
  {
    "type": "Mobile Enforcement",
    "location": "B4056 Henleaze Road",
    "speed_limit": "20mph",
    "camera_label": null,
    "site_id": "4194",
    "latitude": 51.4881865,
    "longitude": -2.6087662,
    "formatted_address": "B4056 & Henleaze Road, Henleaze, Bristol BS9 4NG, UK",
    "geocode_status": "OK"
  },
  {
    "type": "Mobile Enforcement",
    "location": "B4057 Knole Lane",
    "speed_limit": "30mph",
    "camera_label": null,
    "site_id": "120",
    "latitude": 51.509865,
    "longitude": -2.6097586,
    "formatted_address": "Knole Ln, Bristol BS10, UK",
    "geocode_status": "OK"
  },
  {
    "type": "Mobile Enforcement",
    "location": "B4058 Park Road, Stapleton",
    "speed_limit": "20mph",
    "camera_label": null,
    "site_id": "281",
    "latitude": 51.4813574,
    "longitude": -2.5555499,
    "formatted_address": "Park Rd & B4058, Stapleton, Bristol BS16 1BJ, UK",
    "geocode_status": "OK"
  },
  {
    "type": "Mobile Enforcement",
    "location": "B4058 Park Road, Stapleton (nr The Chine)",
    "speed_limit": "30mph",
    "camera_label": null,
    "site_id": "203",
    "latitude": 51.4813574,
    "longitude": -2.5555499,
    "formatted_address": "Park Rd & B4058, Stapleton, Bristol BS16 1BJ, UK",
    "geocode_status": "OK"
  },
  {
    "type": "Mobile Enforcement",
    "location": "B4059 Hallen Road, Henbury",
    "speed_limit": "20mph",
    "camera_label": null,
    "site_id": "67",
    "latitude": 51.5092671,
    "longitude": -2.6369349,
    "formatted_address": "Hallen Rd, Henbury, Bristol BS10, UK",
    "geocode_status": "OK"
  },
  {
    "type": "Mobile Enforcement",
    "location": "B4465 Forest Road, Hillfields",
    "speed_limit": "20mph",
    "camera_label": null,
    "site_id": "370",
    "latitude": 51.47284,
    "longitude": -2.5260742,
    "formatted_address": "B4465 & Forest Road, Bristol BS16 3QR, UK",
    "geocode_status": "OK"
  },
  {
    "type": "Mobile Enforcement",
    "location": "B4465 Forest Road, nr Radley Road, Hillfields",
    "speed_limit": "20mph",
    "camera_label": null,
    "site_id": "10",
    "latitude": 51.4802935,
    "longitude": -2.5250513,
    "formatted_address": "Radley Rd, Bristol BS16, UK",
    "geocode_status": "OK"
  },
  {
    "type": "Mobile Enforcement",
    "location": "B4465 Whitefield Road, Speedwell",
    "speed_limit": "20mph",
    "camera_label": null,
    "site_id": "2370",
    "latitude": 51.4673163,
    "longitude": -2.538708,
    "formatted_address": "B4465 & Whitefield Road, Speedwell, Bristol BS5 7FS, UK",
    "geocode_status": "OK"
  },
  {
    "type": "Mobile Enforcement",
    "location": "B4465 Whitehall Road, nr Gerrish Avenue, Upper Easton",
    "speed_limit": "20mph",
    "camera_label": null,
    "site_id": "213",
    "latitude": 51.4613238,
    "longitude": -2.5620701,
    "formatted_address": "B4465 & Whitehall Road, Redfield, Bristol BS5 9BE, UK",
    "geocode_status": "OK"
  },
  {
    "type": "Mobile Enforcement",
    "location": "B4465 Whitehall Road, nr Thurstons Barton, Upper Easton",
    "speed_limit": "20mph",
    "camera_label": null,
    "site_id": "416",
    "latitude": 51.4647567,
    "longitude": -2.5483179,
    "formatted_address": "Thurstons Barton, Whitehall, Bristol BS5, UK",
    "geocode_status": "OK"
  },
  {
    "type": "Mobile Enforcement",
    "location": "B4465 Whitehall Road, nr Whitehall Avenue, Whitehall",
    "speed_limit": "30mph",
    "camera_label": null,
    "site_id": "371",
    "latitude": 51.4643798,
    "longitude": -2.5444141,
    "formatted_address": "Whitehall Ave, Whitehall, Bristol BS5, UK",
    "geocode_status": "OK"
  },
  {
    "type": "Mobile Enforcement",
    "location": "B4466 Jacobs Wells Road",
    "speed_limit": "20mph",
    "camera_label": null,
    "site_id": "355",
    "latitude": 51.4549965,
    "longitude": -2.609792,
    "formatted_address": "Jacob's Wells Road & B4466, Hotwells, Bristol BS8 1DN, UK",
    "geocode_status": "OK"
  },
  {
    "type": "Mobile Enforcement",
    "location": "B4467 Pembroke Road, Clifton",
    "speed_limit": "20mph",
    "camera_label": null,
    "site_id": "4199",
    "latitude": 51.4614704,
    "longitude": -2.6161952,
    "formatted_address": "Pembroke Rd, Clifton, Bristol, UK",
    "geocode_status": "OK"
  },
  {
    "type": "Mobile Enforcement",
    "location": "B4469 Muller Road, Horfield, Bristol near Brent Road",
    "speed_limit": "30mph",
    "camera_label": null,
    "site_id": "196",
    "latitude": 51.4839351,
    "longitude": -2.5810664,
    "formatted_address": "Brent Rd, Bristol BS7, UK",
    "geocode_status": "OK"
  },
  {
    "type": "Mobile Enforcement",
    "location": "Bamfield Road, Hengrove > Whitchurch Lane",
    "speed_limit": "30mph",
    "camera_label": null,
    "site_id": "2002",
    "latitude": 51.4149434,
    "longitude": -2.5753717,
    "formatted_address": "Bamfield, Bristol BS14, UK",
    "geocode_status": "OK"
  },
  {
    "type": "Mobile Enforcement",
    "location": "Barnstaple Road, Knowle (nr jct Barnstaple Court)",
    "speed_limit": "20mph",
    "camera_label": null,
    "site_id": "246",
    "latitude": 51.4254569,
    "longitude": -2.5858179,
    "formatted_address": "Barnstaple Rd, Bristol BS4, UK",
    "geocode_status": "OK"
  },
  {
    "type": "Mobile Enforcement",
    "location": "Beaufort Road, St George",
    "speed_limit": "20mph",
    "camera_label": null,
    "site_id": "402",
    "latitude": 51.4578508,
    "longitude": -2.5465575,
    "formatted_address": "Beaufort Rd, Bristol BS5, UK",
    "geocode_status": "OK"
  },
  {
    "type": "Mobile Enforcement",
    "location": "Bell Barn Road, Stoke Bishop",
    "speed_limit": "20mph",
    "camera_label": null,
    "site_id": "12",
    "latitude": 51.4891217,
    "longitude": -2.6397793,
    "formatted_address": "Bell Barn Rd, Bristol BS9, UK",
    "geocode_status": "OK"
  },
  {
    "type": "Mobile Enforcement",
    "location": "Birchwood Road, Bristol",
    "speed_limit": "30mph",
    "camera_label": null,
    "site_id": "3196",
    "latitude": 51.4450447,
    "longitude": -2.541025,
    "formatted_address": "Birchwood Rd, Brislington, Bristol BS4, UK",
    "geocode_status": "OK"
  },
  {
    "type": "Mobile Enforcement",
    "location": "Bishopsworth Road, Bristol",
    "speed_limit": "20mph",
    "camera_label": null,
    "site_id": "4096",
    "latitude": 51.4236933,
    "longitude": -2.6149413,
    "formatted_address": "Bishopsworth Rd, Bristol BS13, UK",
    "geocode_status": "OK"
  },
  {
    "type": "Mobile Enforcement",
    "location": "Bishopthorpe Road, Bristol (nr Bishopthorpe Lane)",
    "speed_limit": "20mph",
    "camera_label": null,
    "site_id": "184",
    "latitude": 51.4908811,
    "longitude": -2.5926197,
    "formatted_address": "Bishopthorpe Ln, Bristol BS10, UK",
    "geocode_status": "OK"
  },
  {
    "type": "Mobile Enforcement",
    "location": "Bishport Ave, Hartcliffe, Bristol no 2",
    "speed_limit": "30mph",
    "camera_label": null,
    "site_id": "3008",
    "latitude": 51.4052008,
    "longitude": -2.6057297,
    "formatted_address": "Bishport Ave, Bristol BS13, UK",
    "geocode_status": "OK"
  },
  {
    "type": "Mobile Enforcement",
    "location": "Blackberry Hill, Bristol",
    "speed_limit": "20mph",
    "camera_label": null,
    "site_id": "4190",
    "latitude": 51.4832196,
    "longitude": -2.5438688,
    "formatted_address": "Blackberry Hill, Bristol BS16, UK",
    "geocode_status": "OK"
  },
  {
    "type": "Mobile Enforcement",
    "location": "Blackswarth Road, Bristol",
    "speed_limit": "20mph",
    "camera_label": null,
    "site_id": "244",
    "latitude": 51.4569835,
    "longitude": -2.5519716,
    "formatted_address": "Blackswarth Rd, Bristol BS5, UK",
    "geocode_status": "OK"
  },
  {
    "type": "Mobile Enforcement",
    "location": "Bonnington Walk, nr Branwhite Close, Lockleaze",
    "speed_limit": "20mph",
    "camera_label": null,
    "site_id": "2319",
    "latitude": 51.4918026,
    "longitude": -2.5633066,
    "formatted_address": "Branwhite Cl, Lockleaze, Bristol BS7, UK",
    "geocode_status": "OK"
  },
  {
    "type": "Mobile Enforcement",
    "location": "Bonnington Walk, nr Wordsworth Road, Lockleaze",
    "speed_limit": "20mph",
    "camera_label": null,
    "site_id": "2320",
    "latitude": 51.4947263,
    "longitude": -2.5663126,
    "formatted_address": "Bonnington Walk, Lockleaze, Bristol, UK",
    "geocode_status": "OK"
  },
  {
    "type": "Mobile Enforcement",
    "location": "Bradley Stoke Way, Bristol",
    "speed_limit": "30mph",
    "camera_label": null,
    "site_id": "4166",
    "latitude": 51.5334485,
    "longitude": -2.5455406,
    "formatted_address": "Bradley Stoke Way, Bradley Stoke, Bristol, UK",
    "geocode_status": "OK"
  },
  {
    "type": "Mobile Enforcement",
    "location": "Brentry Lane, Brentry",
    "speed_limit": "20mph",
    "camera_label": null,
    "site_id": "367",
    "latitude": 51.5085897,
    "longitude": -2.6140079,
    "formatted_address": "Brentry Ln, Brentry, Bristol BS10, UK",
    "geocode_status": "OK"
  },
  {
    "type": "Mobile Enforcement",
    "location": "Broad Street/High Street, Staple Hill",
    "speed_limit": "30mph",
    "camera_label": null,
    "site_id": "258",
    "latitude": 51.4811316,
    "longitude": -2.5067527,
    "formatted_address": "High St & Broad St, Bristol BS16 5NX, UK",
    "geocode_status": "OK"
  },
  {
    "type": "Mobile Enforcement",
    "location": "Broad Walk, Knowle West, Bristol",
    "speed_limit": "30mph",
    "camera_label": null,
    "site_id": "3072",
    "latitude": 51.4326992,
    "longitude": -2.572387,
    "formatted_address": "Broad Walk, Bristol BS4, UK",
    "geocode_status": "OK"
  },
  {
    "type": "Mobile Enforcement",
    "location": "Broadwalk, Knowle West, Bristol",
    "speed_limit": "20mph",
    "camera_label": null,
    "site_id": "3095",
    "latitude": 51.4326992,
    "longitude": -2.572387,
    "formatted_address": "Broad Walk, Bristol BS4, UK",
    "geocode_status": "OK"
  },
  {
    "type": "Mobile Enforcement",
    "location": "Broomhill Road, Bristol",
    "speed_limit": "30mph",
    "camera_label": null,
    "site_id": "3086",
    "latitude": 51.4375283,
    "longitude": -2.533007,
    "formatted_address": "Broomhill Rd, Brislington, Bristol BS4, UK",
    "geocode_status": "OK"
  },
  {
    "type": "Mobile Enforcement",
    "location": "Cadogan Road, Bristol",
    "speed_limit": "20mph",
    "camera_label": null,
    "site_id": "398",
    "latitude": 51.4249001,
    "longitude": -2.5709541,
    "formatted_address": "Cadogan Rd, Bristol BS14, UK",
    "geocode_status": "OK"
  },
  {
    "type": "Mobile Enforcement",
    "location": "Calcott Road, Knowle (nr 56 Calcott Road)",
    "speed_limit": "20mph",
    "camera_label": null,
    "site_id": "80",
    "latitude": 51.4363214,
    "longitude": -2.5744533,
    "formatted_address": "56 Calcott Rd, Bristol BS4 2HE, UK",
    "geocode_status": "OK"
  },
  {
    "type": "Mobile Enforcement",
    "location": "Cassel Road, Staple Hill (nr 7 Cassell Road)",
    "speed_limit": "30mph",
    "camera_label": null,
    "site_id": "210",
    "latitude": 51.4821282,
    "longitude": -2.5151516,
    "formatted_address": "7 Cassell Rd, Bristol BS16 5DF, UK",
    "geocode_status": "OK"
  },
  {
    "type": "Mobile Enforcement",
    "location": "Cassell Road, Staple Hill, Bristol",
    "speed_limit": "20mph",
    "camera_label": null,
    "site_id": "4148",
    "latitude": 51.4831083,
    "longitude": -2.515815,
    "formatted_address": "Cassell Rd, Bristol BS16, UK",
    "geocode_status": "OK"
  },
  {
    "type": "Mobile Enforcement",
    "location": "Chalks Road, St George, Bristol",
    "speed_limit": "20mph",
    "camera_label": null,
    "site_id": "2464",
    "latitude": 51.4607708,
    "longitude": -2.5528019,
    "formatted_address": "Chalks Rd, Bristol BS5, UK",
    "geocode_status": "OK"
  },
  {
    "type": "Mobile Enforcement",
    "location": "Charlton Road, Brentry - 1",
    "speed_limit": "20mph",
    "camera_label": null,
    "site_id": "4126",
    "latitude": 51.50238119999999,
    "longitude": -2.6151809,
    "formatted_address": "1 Charlton Rd, Brentry, Bristol BS10, UK",
    "geocode_status": "OK"
  },
  {
    "type": "Mobile Enforcement",
    "location": "Charlton Road, Brentry - 2",
    "speed_limit": "20mph",
    "camera_label": null,
    "site_id": "410",
    "latitude": 51.50238119999999,
    "longitude": -2.6151809,
    "formatted_address": "2 Charlton Rd, Brentry, Bristol BS10, UK",
    "geocode_status": "OK"
  },
  {
    "type": "Mobile Enforcement",
    "location": "Church Road, Bishopsworth, Bristol",
    "speed_limit": "20mph",
    "camera_label": null,
    "site_id": "2400",
    "latitude": 51.4156625,
    "longitude": -2.6188797,
    "formatted_address": "Church Rd, Bishopsworth, Bristol, UK",
    "geocode_status": "OK"
  },
  {
    "type": "Mobile Enforcement",
    "location": "Concorde Drive, Southmead",
    "speed_limit": "20mph",
    "camera_label": null,
    "site_id": "290",
    "latitude": 51.5019495,
    "longitude": -2.6115053,
    "formatted_address": "Concorde Dr, Bristol BS10, UK",
    "geocode_status": "OK"
  },
  {
    "type": "Mobile Enforcement",
    "location": "Constable Road, nr Crome Road, Lockleaze",
    "speed_limit": "20mph",
    "camera_label": null,
    "site_id": "2318",
    "latitude": 51.4912014,
    "longitude": -2.5658212,
    "formatted_address": "Crome Rd, Lockleaze, Bristol BS7, UK",
    "geocode_status": "OK"
  },
  {
    "type": "Mobile Enforcement",
    "location": "Coombe Lane, Stoke Bishop",
    "speed_limit": "20mph",
    "camera_label": null,
    "site_id": "357",
    "latitude": 51.4887194,
    "longitude": -2.6339972,
    "formatted_address": "Coombe Ln, Bristol BS9, UK",
    "geocode_status": "OK"
  },
  {
    "type": "Mobile Enforcement",
    "location": "Creswicke Road, Bristol",
    "speed_limit": "20mph",
    "camera_label": null,
    "site_id": "2100",
    "latitude": 51.4227198,
    "longitude": -2.5880436,
    "formatted_address": "Creswicke Rd, Bristol, UK",
    "geocode_status": "OK"
  },
  {
    "type": "Mobile Enforcement",
    "location": "Crews Hole Road, St George",
    "speed_limit": "20mph",
    "camera_label": null,
    "site_id": "387",
    "latitude": 51.4556106,
    "longitude": -2.5403277,
    "formatted_address": "Crews Hole Rd, Bristol BS5, UK",
    "geocode_status": "OK"
  },
  {
    "type": "Mobile Enforcement",
    "location": "Cromwell Road, St Andrews",
    "speed_limit": "20mph",
    "camera_label": null,
    "site_id": "4122",
    "latitude": 51.4689467,
    "longitude": -2.5899249,
    "formatted_address": "Cromwell Rd, St Andrew's, Bristol BS6, UK",
    "geocode_status": "OK"
  },
  {
    "type": "Mobile Enforcement",
    "location": "Cumberland Road, Bristol",
    "speed_limit": "30mph",
    "camera_label": null,
    "site_id": "9",
    "latitude": 51.4468666,
    "longitude": -2.6090517,
    "formatted_address": "Cumberland Rd, Bristol, UK",
    "geocode_status": "OK"
  },
  {
    "type": "Mobile Enforcement",
    "location": "Donald Road, Bedminster Down",
    "speed_limit": "20mph",
    "camera_label": null,
    "site_id": "397",
    "latitude": 51.421497,
    "longitude": -2.6232793,
    "formatted_address": "Donald Rd, Bedminster Down, Bristol BS13, UK",
    "geocode_status": "OK"
  },
  {
    "type": "Mobile Enforcement",
    "location": "Doncaster Road, Southmead, Bristol",
    "speed_limit": "20mph",
    "camera_label": null,
    "site_id": "2395",
    "latitude": 51.4980664,
    "longitude": -2.5987548,
    "formatted_address": "Doncaster Rd, Southmead, Bristol BS10, UK",
    "geocode_status": "OK"
  },
  {
    "type": "Mobile Enforcement",
    "location": "Dovercourt Road, Horfield",
    "speed_limit": "20mph",
    "camera_label": null,
    "site_id": "2459",
    "latitude": 51.486332,
    "longitude": -2.5750007,
    "formatted_address": "Dovercourt Rd, Bristol BS7, UK",
    "geocode_status": "OK"
  },
  {
    "type": "Mobile Enforcement",
    "location": "Dragon Road, Winterbourne",
    "speed_limit": "30mph",
    "camera_label": null,
    "site_id": "283",
    "latitude": 51.5199469,
    "longitude": -2.5085861,
    "formatted_address": "Dragon Rd, Winterbourne, Bristol BS36, UK",
    "geocode_status": "OK"
  },
  {
    "type": "Mobile Enforcement",
    "location": "Duckmoor Rd, Ashton Gate, Bristol",
    "speed_limit": "20mph",
    "camera_label": null,
    "site_id": "146",
    "latitude": 51.4412552,
    "longitude": -2.6183253,
    "formatted_address": "Duckmoor Rd, Ashton Gate, Bristol BS3, UK",
    "geocode_status": "OK"
  },
  {
    "type": "Mobile Enforcement",
    "location": "Eastfield Road, Westbury on Trym",
    "speed_limit": "20mph",
    "camera_label": null,
    "site_id": "279",
    "latitude": 51.4923466,
    "longitude": -2.6120405,
    "formatted_address": "Eastfield Rd, Bristol BS9, UK",
    "geocode_status": "OK"
  },
  {
    "type": "Mobile Enforcement",
    "location": "Feeder Road, Bristol",
    "speed_limit": "30mph",
    "camera_label": null,
    "site_id": "3051",
    "latitude": 51.4508151,
    "longitude": -2.5655368,
    "formatted_address": "Feeder Rd, Bristol, UK",
    "geocode_status": "OK"
  },
  {
    "type": "Mobile Enforcement",
    "location": "Fortfield Road, Whitchurch",
    "speed_limit": "20mph",
    "camera_label": null,
    "site_id": "421",
    "latitude": 51.4121845,
    "longitude": -2.5689031,
    "formatted_address": "Fortfield Rd, Bristol BS14, UK",
    "geocode_status": "OK"
  },
  {
    "type": "Mobile Enforcement",
    "location": "Four Acres, Withywood",
    "speed_limit": "20mph",
    "camera_label": null,
    "site_id": "414",
    "latitude": 51.4063129,
    "longitude": -2.6266691,
    "formatted_address": "145 Four Acres, Bristol BS13 8RA, UK",
    "geocode_status": "OK"
  },
  {
    "type": "Mobile Enforcement",
    "location": "Furber Road",
    "speed_limit": "20mph",
    "camera_label": null,
    "site_id": "358",
    "latitude": 51.4541117,
    "longitude": -2.5221459,
    "formatted_address": "Furber Rd, Bristol BS5, UK",
    "geocode_status": "OK"
  },
  {
    "type": "Mobile Enforcement",
    "location": "Gill Avenue, Fishponds, Bristol",
    "speed_limit": "20mph",
    "camera_label": null,
    "site_id": "2240",
    "latitude": 51.4871885,
    "longitude": -2.5206203,
    "formatted_address": "Gill Ave, Bristol BS16, UK",
    "geocode_status": "OK"
  },
  {
    "type": "Mobile Enforcement",
    "location": "Glenfrome Road, Eastville",
    "speed_limit": "20mph",
    "camera_label": null,
    "site_id": "266",
    "latitude": 51.47618,
    "longitude": -2.5656562,
    "formatted_address": "Glenfrome Rd, Eastville, Bristol, UK",
    "geocode_status": "OK"
  },
  {
    "type": "Mobile Enforcement",
    "location": "Glyn Vale, Knowle",
    "speed_limit": "20mph",
    "camera_label": null,
    "site_id": "344",
    "latitude": 51.4318842,
    "longitude": -2.589948,
    "formatted_address": "Glyn Vale, Bristol BS3, UK",
    "geocode_status": "OK"
  },
  {
    "type": "Mobile Enforcement",
    "location": "Gordon Avenue, Bristol",
    "speed_limit": "20mph",
    "camera_label": null,
    "site_id": "278",
    "latitude": 51.4663343,
    "longitude": -2.5470855,
    "formatted_address": "Gordon Ave, Whitehall, Bristol BS5, UK",
    "geocode_status": "OK"
  },
  {
    "type": "Mobile Enforcement",
    "location": "Great Hayles Road, Hengrove",
    "speed_limit": "20mph",
    "camera_label": null,
    "site_id": "404",
    "latitude": 51.4184405,
    "longitude": -2.573101,
    "formatted_address": "Great Hayles Rd, Bristol BS14, UK",
    "geocode_status": "OK"
  },
  {
    "type": "Mobile Enforcement",
    "location": "Greenway Bush Lane, Ashton, Bristol",
    "speed_limit": "20mph",
    "camera_label": null,
    "site_id": "215",
    "latitude": 51.4441869,
    "longitude": -2.612849,
    "formatted_address": "Greenway Bush Ln, Southville, Bristol BS3, UK",
    "geocode_status": "OK"
  },
  {
    "type": "Mobile Enforcement",
    "location": "Guildford Road, Bristol",
    "speed_limit": "30mph",
    "camera_label": null,
    "site_id": "384",
    "latitude": 51.4510003,
    "longitude": -2.5414841,
    "formatted_address": "Guildford Rd, Brislington, Bristol BS4, UK",
    "geocode_status": "OK"
  },
  {
    "type": "Mobile Enforcement",
    "location": "Hampton Road, Bristol",
    "speed_limit": "20mph",
    "camera_label": null,
    "site_id": "52",
    "latitude": 51.4656036,
    "longitude": -2.6065386,
    "formatted_address": "Hampton Rd, Bristol BS6, UK",
    "geocode_status": "OK"
  },
  {
    "type": "Mobile Enforcement",
    "location": "Hareclive Rd, Hartcliffe, Bristol",
    "speed_limit": "30mph",
    "camera_label": null,
    "site_id": "3119",
    "latitude": 51.4080654,
    "longitude": -2.6043889,
    "formatted_address": "Hareclive Rd, Bristol BS13, UK",
    "geocode_status": "OK"
  },
  {
    "type": "Mobile Enforcement",
    "location": "Hawkfield Road, Bristol",
    "speed_limit": "30mph",
    "camera_label": null,
    "site_id": "3116",
    "latitude": 51.4097625,
    "longitude": -2.5943953,
    "formatted_address": "Hawkfield Rd, Bristol, UK",
    "geocode_status": "OK"
  },
  {
    "type": "Mobile Enforcement",
    "location": "Hazelbury Road, Whitchurch",
    "speed_limit": "20mph",
    "camera_label": null,
    "site_id": "276",
    "latitude": 51.422372,
    "longitude": -2.557791,
    "formatted_address": "Hazelbury Rd, Bristol BS14, UK",
    "geocode_status": "OK"
  },
  {
    "type": "Mobile Enforcement",
    "location": "Henbury Road, Bristol",
    "speed_limit": "20mph",
    "camera_label": null,
    "site_id": "2405",
    "latitude": 51.501559,
    "longitude": -2.6250491,
    "formatted_address": "Henbury Rd, Bristol, UK",
    "geocode_status": "OK"
  },
  {
    "type": "Mobile Enforcement",
    "location": "Hengrove Avenue, Hengrove, Bristol",
    "speed_limit": "20mph",
    "camera_label": null,
    "site_id": "263",
    "latitude": 51.4264946,
    "longitude": -2.5649043,
    "formatted_address": "Hengrove Ave, Bristol BS14, UK",
    "geocode_status": "OK"
  },
  {
    "type": "Mobile Enforcement",
    "location": "Hengrove Lane, Hengrove, Bristol",
    "speed_limit": "20mph",
    "camera_label": null,
    "site_id": "262",
    "latitude": 51.4250474,
    "longitude": -2.5670779,
    "formatted_address": "Hengrove Ln, Bristol BS14, UK",
    "geocode_status": "OK"
  },
  {
    "type": "Mobile Enforcement",
    "location": "Highbury Road, Bedminster",
    "speed_limit": "20mph",
    "camera_label": null,
    "site_id": "275",
    "latitude": 51.4323877,
    "longitude": -2.6038742,
    "formatted_address": "Highbury Rd, Bedminster, Bristol BS3, UK",
    "geocode_status": "OK"
  },
  {
    "type": "Mobile Enforcement",
    "location": "Highbury Road, Horfield",
    "speed_limit": "20mph",
    "camera_label": null,
    "site_id": "220",
    "latitude": 51.4909271,
    "longitude": -2.5825587,
    "formatted_address": "Highbury Rd, Bristol BS7, UK",
    "geocode_status": "OK"
  },
  {
    "type": "Mobile Enforcement",
    "location": "Highridge Green, Bristol",
    "speed_limit": "30mph",
    "camera_label": null,
    "site_id": "2011",
    "latitude": 51.4169321,
    "longitude": -2.6282191,
    "formatted_address": "Highridge Grn, Bristol BS13, UK",
    "geocode_status": "OK"
  },
  {
    "type": "Mobile Enforcement",
    "location": "Hill View, Henleaze",
    "speed_limit": "20mph",
    "camera_label": null,
    "site_id": "289",
    "latitude": 51.4893413,
    "longitude": -2.6041625,
    "formatted_address": "Hill View, Henleaze, Bristol BS9, UK",
    "geocode_status": "OK"
  },
  {
    "type": "Mobile Enforcement",
    "location": "Hillfields Avenue, Hillfields, Bristol",
    "speed_limit": "20mph",
    "camera_label": null,
    "site_id": "4109",
    "latitude": 51.4742296,
    "longitude": -2.5142613,
    "formatted_address": "Hillfields Ave, Bristol BS16, UK",
    "geocode_status": "OK"
  },
  {
    "type": "Mobile Enforcement",
    "location": "Hillside Road, St George (nr Air Balloon Hill Primary School)",
    "speed_limit": "20mph",
    "camera_label": null,
    "site_id": "3",
    "latitude": 51.4586415,
    "longitude": -2.5304941,
    "formatted_address": "75 Hillside Rd, Bristol BS5 7PB, UK",
    "geocode_status": "OK"
  },
  {
    "type": "Mobile Enforcement",
    "location": "Hollister's Drive, Hartcliffe",
    "speed_limit": "20mph",
    "camera_label": null,
    "site_id": "256",
    "latitude": 51.4050708,
    "longitude": -2.5958445,
    "formatted_address": "Hollister's Dr, Bristol BS13, UK",
    "geocode_status": "OK"
  },
  {
    "type": "Mobile Enforcement",
    "location": "Hollway Road, Stockwood",
    "speed_limit": "20mph",
    "camera_label": null,
    "site_id": "291",
    "latitude": 51.4117105,
    "longitude": -2.5442961,
    "formatted_address": "Hollway Rd, Stockwood, Bristol BS14, UK",
    "geocode_status": "OK"
  },
  {
    "type": "Mobile Enforcement",
    "location": "Hungerford Road, Bristol",
    "speed_limit": "20mph",
    "camera_label": null,
    "site_id": "267",
    "latitude": 51.4276722,
    "longitude": -2.5460319,
    "formatted_address": "Hungerford Rd, Brislington, Bristol BS4, UK",
    "geocode_status": "OK"
  },
  {
    "type": "Mobile Enforcement",
    "location": "Ilminster Avenue, Bristol",
    "speed_limit": "20mph",
    "camera_label": null,
    "site_id": "58",
    "latitude": 51.4264736,
    "longitude": -2.5789658,
    "formatted_address": "Ilminster Ave, Bristol BS4, UK",
    "geocode_status": "OK"
  },
  {
    "type": "Mobile Enforcement",
    "location": "Jenner Boulevard, Lyde Green, Bristol",
    "speed_limit": "20mph",
    "camera_label": null,
    "site_id": "2095",
    "latitude": 51.5014218,
    "longitude": -2.4774226,
    "formatted_address": "Jenner Blvd, Emersons Green, Bristol BS16, UK",
    "geocode_status": "OK"
  },
  {
    "type": "Mobile Enforcement",
    "location": "Julian Road, Sneyd Park",
    "speed_limit": "20mph",
    "camera_label": null,
    "site_id": "282",
    "latitude": 51.4735767,
    "longitude": -2.6304329,
    "formatted_address": "Julian Rd, Sneyd Park, Bristol BS9, UK",
    "geocode_status": "OK"
  },
  {
    "type": "Mobile Enforcement",
    "location": "Kellaway Avenue, Bristol",
    "speed_limit": "30mph",
    "camera_label": null,
    "site_id": "84",
    "latitude": 51.4857581,
    "longitude": -2.5950052,
    "formatted_address": "Kellaway Ave, Bristol, UK",
    "geocode_status": "OK"
  },
  {
    "type": "Mobile Enforcement",
    "location": "Kensington Park Road, Brislington",
    "speed_limit": "20mph",
    "camera_label": null,
    "site_id": "394",
    "latitude": 51.435944,
    "longitude": -2.5573588,
    "formatted_address": "Kensington Park Rd, Brislington, Bristol BS4, UK",
    "geocode_status": "OK"
  },
  {
    "type": "Mobile Enforcement",
    "location": "Keys Avenue, Horfield (nr jct Reynolds Walk)",
    "speed_limit": "20mph",
    "camera_label": null,
    "site_id": "211",
    "latitude": 51.4935252,
    "longitude": -2.5779458,
    "formatted_address": "Keys Ave, Bristol BS7, UK",
    "geocode_status": "OK"
  },
  {
    "type": "Mobile Enforcement",
    "location": "Kings Walk, Bristol",
    "speed_limit": "20mph",
    "camera_label": null,
    "site_id": "2094",
    "latitude": 51.4201422,
    "longitude": -2.6290782,
    "formatted_address": "Kings Walk, Bristol BS13, UK",
    "geocode_status": "OK"
  },
  {
    "type": "Mobile Enforcement",
    "location": "Kings Weston Road, Henbury",
    "speed_limit": "30mph",
    "camera_label": null,
    "site_id": "174",
    "latitude": 51.5058479,
    "longitude": -2.635336,
    "formatted_address": "Kings Weston Rd, Henbury, Bristol, UK",
    "geocode_status": "OK"
  },
  {
    "type": "Mobile Enforcement",
    "location": "Kingsway, St George",
    "speed_limit": "20mph",
    "camera_label": null,
    "site_id": "356",
    "latitude": 51.4579691,
    "longitude": -2.5212216,
    "formatted_address": "Kingsway, Bristol, UK",
    "geocode_status": "OK"
  },
  {
    "type": "Mobile Enforcement",
    "location": "Kingsweston Lane, Lawrence Weston",
    "speed_limit": "30mph",
    "camera_label": null,
    "site_id": "176",
    "latitude": 51.4971957,
    "longitude": -2.6622137,
    "formatted_address": "Kings Weston Ln, Lawrence Weston, Bristol BS11, UK",
    "geocode_status": "OK"
  },
  {
    "type": "Mobile Enforcement",
    "location": "Ladies Mile, Durdham Down",
    "speed_limit": "20mph",
    "camera_label": null,
    "site_id": "155",
    "latitude": 51.4724698,
    "longitude": -2.619304800000001,
    "formatted_address": "Durdham Down, Bristol BS9 1FG, UK",
    "geocode_status": "OK"
  },
  {
    "type": "Mobile Enforcement",
    "location": "Ladman Road, Stockwood",
    "speed_limit": "20mph",
    "camera_label": null,
    "site_id": "292",
    "latitude": 51.4134593,
    "longitude": -2.5418443,
    "formatted_address": "Ladman Rd, Stockwood, Bristol BS14, UK",
    "geocode_status": "OK"
  },
  {
    "type": "Mobile Enforcement",
    "location": "Landseer Avenue, Lockleaze",
    "speed_limit": "20mph",
    "camera_label": null,
    "site_id": "385",
    "latitude": 51.4915729,
    "longitude": -2.5670103,
    "formatted_address": "Landseer Ave, Lockleaze, Bristol BS7, UK",
    "geocode_status": "OK"
  },
  {
    "type": "Mobile Enforcement",
    "location": "Long Cross, Lawrence Weston, Bristol",
    "speed_limit": "30mph",
    "camera_label": null,
    "site_id": "178",
    "latitude": 51.5016535,
    "longitude": -2.6599863,
    "formatted_address": "Long Cross, Bristol BS11, UK",
    "geocode_status": "OK"
  },
  {
    "type": "Mobile Enforcement",
    "location": "Lynton Road, Bedminster, Bristol",
    "speed_limit": "20mph",
    "camera_label": null,
    "site_id": "2090",
    "latitude": 51.4319494,
    "longitude": -2.596833,
    "formatted_address": "Lynton Rd, Bedminster, Bristol BS3, UK",
    "geocode_status": "OK"
  },
  {
    "type": "Mobile Enforcement",
    "location": "M49 Hallen, Near Moorhouse Lane",
    "speed_limit": "70mph",
    "camera_label": null,
    "site_id": "4135",
    "latitude": 51.5178097,
    "longitude": -2.6616164,
    "formatted_address": "Moorhouse Ln, Bristol, UK",
    "geocode_status": "OK"
  },
  {
    "type": "Mobile Enforcement",
    "location": "Marksbury Road, Bedminster",
    "speed_limit": "20mph",
    "camera_label": null,
    "site_id": "248",
    "latitude": 51.4328996,
    "longitude": -2.5973336,
    "formatted_address": "Marksbury Rd, Bedminster, Bristol BS3, UK",
    "geocode_status": "OK"
  },
  {
    "type": "Mobile Enforcement",
    "location": "Marsh Lane, Bristol",
    "speed_limit": "20mph",
    "camera_label": null,
    "site_id": "366",
    "latitude": 51.4532857,
    "longitude": -2.5599003,
    "formatted_address": "Marsh Ln, Redfield, Bristol BS5, UK",
    "geocode_status": "OK"
  },
  {
    "type": "Mobile Enforcement",
    "location": "Martock Road, Bedminster",
    "speed_limit": "20mph",
    "camera_label": null,
    "site_id": "386",
    "latitude": 51.4322183,
    "longitude": -2.6026136,
    "formatted_address": "Martock Rd, Bedminster, Bristol BS3, UK",
    "geocode_status": "OK"
  },
  {
    "type": "Mobile Enforcement",
    "location": "Meadow Vale, St George, Bristol",
    "speed_limit": "20mph",
    "camera_label": null,
    "site_id": "2444",
    "latitude": 51.4652109,
    "longitude": -2.5314149,
    "formatted_address": "Meadow Vale, Bristol BS5, UK",
    "geocode_status": "OK"
  },
  {
    "type": "Mobile Enforcement",
    "location": "Merebank Road, Avonmouth",
    "speed_limit": "30mph",
    "camera_label": null,
    "site_id": "299",
    "latitude": 51.5164065,
    "longitude": -2.6795477,
    "formatted_address": "Merebank Rd, Avonmouth, Bristol BS11, UK",
    "geocode_status": "OK"
  },
  {
    "type": "Mobile Enforcement",
    "location": "Murford Avenue, Withywood",
    "speed_limit": "20mph",
    "camera_label": null,
    "site_id": "407",
    "latitude": 51.4081763,
    "longitude": -2.6089154,
    "formatted_address": "Murford Ave, Bristol BS13, UK",
    "geocode_status": "OK"
  },
  {
    "type": "Mobile Enforcement",
    "location": "NO LONGER IN USE AS NOW 20MPH LIMIT - Crews Hole Road, St George, Bristol",
    "speed_limit": "30mph",
    "camera_label": null,
    "site_id": "3147",
    "latitude": 51.4556106,
    "longitude": -2.5403277,
    "formatted_address": "Crews Hole Rd, Bristol BS5, UK",
    "geocode_status": "OK"
  },
  {
    "type": "Mobile Enforcement",
    "location": "Newbridge Road, Bristol",
    "speed_limit": "20mph",
    "camera_label": null,
    "site_id": "359",
    "latitude": 51.450301,
    "longitude": -2.5469581,
    "formatted_address": "Newbridge Rd, Brislington, Bristol BS4, UK",
    "geocode_status": "OK"
  },
  {
    "type": "Mobile Enforcement",
    "location": "North Street, Ashton, Bristol",
    "speed_limit": "20mph",
    "camera_label": null,
    "site_id": "4139",
    "latitude": 51.4430503,
    "longitude": -2.6162794,
    "formatted_address": "North St, Ashton Gate, Bristol BS3, UK",
    "geocode_status": "OK"
  },
  {
    "type": "Mobile Enforcement",
    "location": "Novers Hill, Bedminster, Bristol",
    "speed_limit": "20mph",
    "camera_label": null,
    "site_id": "2385",
    "latitude": 51.4302339,
    "longitude": -2.6001934,
    "formatted_address": "Novers Hill, Bedminster, Bristol, UK",
    "geocode_status": "OK"
  },
  {
    "type": "Mobile Enforcement",
    "location": "Novers Hill, Bristol",
    "speed_limit": "20mph",
    "camera_label": null,
    "site_id": "2021",
    "latitude": 51.427025,
    "longitude": -2.5997516,
    "formatted_address": "Novers Hill, Bristol, UK",
    "geocode_status": "OK"
  },
  {
    "type": "Mobile Enforcement",
    "location": "Novers Lane, Bristol",
    "speed_limit": "20mph",
    "camera_label": null,
    "site_id": "2013",
    "latitude": 51.4211417,
    "longitude": -2.5976941,
    "formatted_address": "Novers Ln, Bristol BS4, UK",
    "geocode_status": "OK"
  },
  {
    "type": "Mobile Enforcement",
    "location": "Old Sneed Avenue, Stoke Bishop",
    "speed_limit": "20mph",
    "camera_label": null,
    "site_id": "395",
    "latitude": 51.4801569,
    "longitude": -2.6367575,
    "formatted_address": "Old Sneed Ave, Bristol BS9, UK",
    "geocode_status": "OK"
  },
  {
    "type": "Mobile Enforcement",
    "location": "Oldbury Court Road, Bristol",
    "speed_limit": "20mph",
    "camera_label": null,
    "site_id": "365",
    "latitude": 51.4842641,
    "longitude": -2.5275539,
    "formatted_address": "Oldbury Ct Rd, Bristol BS16, UK",
    "geocode_status": "OK"
  },
  {
    "type": "Mobile Enforcement",
    "location": "Park Crescent, Whitehall",
    "speed_limit": "20mph",
    "camera_label": null,
    "site_id": "373",
    "latitude": 51.4630788,
    "longitude": -2.547844,
    "formatted_address": "Park Cres, Whitehall, Bristol BS5, UK",
    "geocode_status": "OK"
  },
  {
    "type": "Mobile Enforcement",
    "location": "Park Road, Shirehampton, Bristol",
    "speed_limit": "20mph",
    "camera_label": null,
    "site_id": "2397",
    "latitude": 51.4880875,
    "longitude": -2.6707799,
    "formatted_address": "Park Rd, Shirehampton, Bristol BS11, UK",
    "geocode_status": "OK"
  },
  {
    "type": "Mobile Enforcement",
    "location": "Park Road, Staple Hill, Bristol",
    "speed_limit": "20mph",
    "camera_label": null,
    "site_id": "4165",
    "latitude": 51.4838341,
    "longitude": -2.5006626,
    "formatted_address": "Park Rd, Bristol BS16, UK",
    "geocode_status": "OK"
  },
  {
    "type": "Mobile Enforcement",
    "location": "Park Wall Road, Longwell Green",
    "speed_limit": "30mph",
    "camera_label": null,
    "site_id": "188",
    "latitude": 51.4419604,
    "longitude": -2.4906162,
    "formatted_address": "Parkwall Rd, Longwell Green, Bristol BS30, UK",
    "geocode_status": "OK"
  },
  {
    "type": "Mobile Enforcement",
    "location": "Parson Street, Bedminster",
    "speed_limit": "20mph",
    "camera_label": null,
    "site_id": "408",
    "latitude": 51.4310197,
    "longitude": -2.6039289,
    "formatted_address": "Parson St, Bedminster, Bristol BS3, UK",
    "geocode_status": "OK"
  },
  {
    "type": "Mobile Enforcement",
    "location": "Petherton Road, Hengrove",
    "speed_limit": "20mph",
    "camera_label": null,
    "site_id": "346",
    "latitude": 51.422682,
    "longitude": -2.5656116,
    "formatted_address": "Petherton Rd, Bristol BS14, UK",
    "geocode_status": "OK"
  },
  {
    "type": "Mobile Enforcement",
    "location": "Plummers Hill, Bristol",
    "speed_limit": "20mph",
    "camera_label": null,
    "site_id": "423",
    "latitude": 51.4635439,
    "longitude": -2.5417764,
    "formatted_address": "Plummers Hill, Bristol BS5, UK",
    "geocode_status": "OK"
  },
  {
    "type": "Mobile Enforcement",
    "location": "Plummers Hill, St George, nr Hudds Vale Road",
    "speed_limit": "30mph",
    "camera_label": null,
    "site_id": "185",
    "latitude": 51.4635439,
    "longitude": -2.5417764,
    "formatted_address": "Plummers Hill, Bristol BS5, UK",
    "geocode_status": "OK"
  },
  {
    "type": "Mobile Enforcement",
    "location": "Poplar Way West, Avonmouth",
    "speed_limit": "30mph",
    "camera_label": null,
    "site_id": "413",
    "latitude": 51.521431,
    "longitude": -2.678719,
    "formatted_address": "Poplar Way W, Avonmouth, Bristol BS11, UK",
    "geocode_status": "OK"
  },
  {
    "type": "Mobile Enforcement",
    "location": "Portview Road, Shirehampton",
    "speed_limit": "20mph",
    "camera_label": null,
    "site_id": "265",
    "latitude": 51.49171800000001,
    "longitude": -2.688837,
    "formatted_address": "Portview Road, Shirehampton, Bristol BS11 9QE, UK",
    "geocode_status": "OK"
  },
  {
    "type": "Mobile Enforcement",
    "location": "Queen's Road, Bishopsworth, Bristol (Layby opposite 67 Queen's Road)",
    "speed_limit": "30mph",
    "camera_label": null,
    "site_id": "3252",
    "latitude": 51.4565794,
    "longitude": -2.6072213,
    "formatted_address": "67 Queens Rd, Triangle W, Clifton, Bristol BS8 1QL, UK",
    "geocode_status": "OK"
  },
  {
    "type": "Mobile Enforcement",
    "location": "Raleigh Road, Southville, Bristol (no longer in use)",
    "speed_limit": "20mph",
    "camera_label": null,
    "site_id": "3267",
    "latitude": 51.4438287,
    "longitude": -2.6107484,
    "formatted_address": "Raleigh Rd, Southville, Bristol BS3, UK",
    "geocode_status": "OK"
  },
  {
    "type": "Mobile Enforcement",
    "location": "Red Hill, Camerton",
    "speed_limit": "20mph",
    "camera_label": null,
    "site_id": "2432",
    "latitude": 51.31577799999999,
    "longitude": -2.455255,
    "formatted_address": "Camerton, Bath BA2 0PS, UK",
    "geocode_status": "OK"
  },
  {
    "type": "Mobile Enforcement",
    "location": "Redland Road, nr Edgecumbe Road, Bristol",
    "speed_limit": "20mph",
    "camera_label": null,
    "site_id": "341",
    "latitude": 51.4698868,
    "longitude": -2.598115,
    "formatted_address": "Edgecumbe Rd, Redland, Bristol BS6, UK",
    "geocode_status": "OK"
  },
  {
    "type": "Mobile Enforcement",
    "location": "Ridgeway Lane, Hengrove, Bristol",
    "speed_limit": "30mph",
    "camera_label": null,
    "site_id": "349",
    "latitude": 51.410076,
    "longitude": -2.562436,
    "formatted_address": "Ridgeway Ln, Bristol BS14, UK",
    "geocode_status": "OK"
  },
  {
    "type": "Mobile Enforcement",
    "location": "Ridgeway Road, Bristol",
    "speed_limit": "20mph",
    "camera_label": null,
    "site_id": "261",
    "latitude": 51.4729406,
    "longitude": -2.5382581,
    "formatted_address": "Ridgeway Rd, Bristol, UK",
    "geocode_status": "OK"
  },
  {
    "type": "Mobile Enforcement",
    "location": "Ridingleaze, Lawrence Weston",
    "speed_limit": "20mph",
    "camera_label": null,
    "site_id": "388",
    "latitude": 51.5014365,
    "longitude": -2.6590785,
    "formatted_address": "Ridingleaze, Bristol BS11, UK",
    "geocode_status": "OK"
  },
  {
    "type": "Mobile Enforcement",
    "location": "Robertson Road, Easton",
    "speed_limit": "20mph",
    "camera_label": null,
    "site_id": "230",
    "latitude": 51.4695581,
    "longitude": -2.5620638,
    "formatted_address": "Robertson Rd, Easton, Bristol BS5, UK",
    "geocode_status": "OK"
  },
  {
    "type": "Mobile Enforcement",
    "location": "Roman Way, Bristol",
    "speed_limit": "20mph",
    "camera_label": null,
    "site_id": "343",
    "latitude": 51.480202,
    "longitude": -2.6441169,
    "formatted_address": "Roman Way, Bristol BS9, UK",
    "geocode_status": "OK"
  },
  {
    "type": "Mobile Enforcement",
    "location": "Romney Avenue, Lockleaze",
    "speed_limit": "30mph",
    "camera_label": null,
    "site_id": "158",
    "latitude": 51.4869093,
    "longitude": -2.5643965,
    "formatted_address": "Romney Ave, Lockleaze, Bristol, UK",
    "geocode_status": "OK"
  },
  {
    "type": "Mobile Enforcement",
    "location": "Romney Avenue, nr Stoke Park Primary School, Lockleaze",
    "speed_limit": "20mph",
    "camera_label": null,
    "site_id": "5",
    "latitude": 51.4877362,
    "longitude": -2.5630857,
    "formatted_address": "Romney Ave, Bristol, UK",
    "geocode_status": "OK"
  },
  {
    "type": "Mobile Enforcement",
    "location": "Rousham Road, Bristol",
    "speed_limit": "20mph",
    "camera_label": null,
    "site_id": "363",
    "latitude": 51.474984,
    "longitude": -2.5707741,
    "formatted_address": "Rousham Rd, Bristol, UK",
    "geocode_status": "OK"
  },
  {
    "type": "Mobile Enforcement",
    "location": "Sandy Park Road, Brislington, Bristol",
    "speed_limit": "20mph",
    "camera_label": null,
    "site_id": "2398",
    "latitude": 51.4408754,
    "longitude": -2.5557908,
    "formatted_address": "Sandy Park Rd, Brislington, Bristol BS4, UK",
    "geocode_status": "OK"
  },
  {
    "type": "Mobile Enforcement",
    "location": "School Road, Brislington",
    "speed_limit": "30mph",
    "camera_label": null,
    "site_id": "2017",
    "latitude": 51.4376757,
    "longitude": -2.5438709,
    "formatted_address": "School Rd, Brislington, Bristol BS4, UK",
    "geocode_status": "OK"
  },
  {
    "type": "Mobile Enforcement",
    "location": "Sea Mills Lane, Sea Mills",
    "speed_limit": "20mph",
    "camera_label": null,
    "site_id": "361",
    "latitude": 51.4826638,
    "longitude": -2.6452415,
    "formatted_address": "Sea Mills Ln, Bristol BS9, UK",
    "geocode_status": "OK"
  },
  {
    "type": "Mobile Enforcement",
    "location": "Severn Road, Bristol",
    "speed_limit": "30mph",
    "camera_label": null,
    "site_id": "4191",
    "latitude": 51.4888304,
    "longitude": -2.678322,
    "formatted_address": "Severn Rd, Bristol, UK",
    "geocode_status": "OK"
  },
  {
    "type": "Mobile Enforcement",
    "location": "Shortwood Road, Hartcliffe, Bristol",
    "speed_limit": "20mph",
    "camera_label": null,
    "site_id": "2093",
    "latitude": 51.4050322,
    "longitude": -2.587106,
    "formatted_address": "Shortwood Rd, Bristol BS13, UK",
    "geocode_status": "OK"
  },
  {
    "type": "Mobile Enforcement",
    "location": "Small Lane, Bristol",
    "speed_limit": "20mph",
    "camera_label": null,
    "site_id": "277",
    "latitude": 51.4822132,
    "longitude": -2.5435401,
    "formatted_address": "Small Ln, Bristol BS16, UK",
    "geocode_status": "OK"
  },
  {
    "type": "Mobile Enforcement",
    "location": "Smyth Road, Ashton",
    "speed_limit": "20mph",
    "camera_label": null,
    "site_id": "28",
    "latitude": 51.4386867,
    "longitude": -2.6162779,
    "formatted_address": "Smyth Rd, Bristol BS3, UK",
    "geocode_status": "OK"
  },
  {
    "type": "Mobile Enforcement",
    "location": "Snowdon Road, Fishponds",
    "speed_limit": "20mph",
    "camera_label": null,
    "site_id": "98",
    "latitude": 51.4816944,
    "longitude": -2.537566,
    "formatted_address": "Snowdon Rd, Bristol BS16, UK",
    "geocode_status": "OK"
  },
  {
    "type": "Mobile Enforcement",
    "location": "Somerdale Avenue, Knowle, Bristol",
    "speed_limit": "20mph",
    "camera_label": null,
    "site_id": "348",
    "latitude": 51.4302922,
    "longitude": -2.5714407,
    "formatted_address": "Somerdale Ave, Knowle, Bristol BS4, UK",
    "geocode_status": "OK"
  },
  {
    "type": "Mobile Enforcement",
    "location": "South Liberty Lane, Ashton Vale",
    "speed_limit": "20mph",
    "camera_label": null,
    "site_id": "3081",
    "latitude": 51.4303056,
    "longitude": -2.620913,
    "formatted_address": "S Liberty Ln, Bristol BS3, UK",
    "geocode_status": "OK"
  },
  {
    "type": "Mobile Enforcement",
    "location": "St Luke's Road, Totterdown",
    "speed_limit": "20mph",
    "camera_label": null,
    "site_id": "403",
    "latitude": 51.4414606,
    "longitude": -2.5824679,
    "formatted_address": "St Luke's Rd, Totterdown, Bristol BS3, UK",
    "geocode_status": "OK"
  },
  {
    "type": "Mobile Enforcement",
    "location": "Station Road, Shirehampton",
    "speed_limit": "20mph",
    "camera_label": null,
    "site_id": "264",
    "latitude": 51.4860795,
    "longitude": -2.6781093,
    "formatted_address": "Station Rd, Shirehampton, Bristol BS11, UK",
    "geocode_status": "OK"
  },
  {
    "type": "Mobile Enforcement",
    "location": "Stockwood Lane, Stockwood",
    "speed_limit": "30mph",
    "camera_label": null,
    "site_id": "285",
    "latitude": 51.412773,
    "longitude": -2.5392203,
    "formatted_address": "Stockwood Ln, Stockwood, Bristol, UK",
    "geocode_status": "OK"
  },
  {
    "type": "Mobile Enforcement",
    "location": "Stockwood Lane, nr Whitchurch Village sign, Stockwood",
    "speed_limit": "30mph",
    "camera_label": null,
    "site_id": "88",
    "latitude": 51.412773,
    "longitude": -2.5392203,
    "formatted_address": "Stockwood Ln, Stockwood, Bristol, UK",
    "geocode_status": "OK"
  },
  {
    "type": "Mobile Enforcement",
    "location": "Stockwood Lane, nr the sports ground, Stockwood",
    "speed_limit": "20mph",
    "camera_label": null,
    "site_id": "95",
    "latitude": 51.412773,
    "longitude": -2.5392203,
    "formatted_address": "Stockwood Ln, Stockwood, Bristol, UK",
    "geocode_status": "OK"
  },
  {
    "type": "Mobile Enforcement",
    "location": "Stockwood Road, Stockwood",
    "speed_limit": "20mph",
    "camera_label": null,
    "site_id": "2429",
    "latitude": 51.4155289,
    "longitude": -2.5439701,
    "formatted_address": "Stockwood Rd, Stockwood, Bristol, UK",
    "geocode_status": "OK"
  },
  {
    "type": "Mobile Enforcement",
    "location": "Stoke Hill/Stoke Rdnr Saville Rd, Clifton",
    "speed_limit": "30mph",
    "camera_label": null,
    "site_id": "65",
    "latitude": 51.4744012,
    "longitude": -2.6243308,
    "formatted_address": "Stoke Hill & Stoke Rd, Bristol BS9 1FG, UK",
    "geocode_status": "OK"
  },
  {
    "type": "Mobile Enforcement",
    "location": "Sturminster Road, Bristol",
    "speed_limit": "30mph",
    "camera_label": null,
    "site_id": "3101",
    "latitude": 51.4179934,
    "longitude": -2.553982,
    "formatted_address": "Sturminster Rd, Bristol BS14, UK",
    "geocode_status": "OK"
  },
  {
    "type": "Mobile Enforcement",
    "location": "Sylvia Avenue, Bristol",
    "speed_limit": "20mph",
    "camera_label": null,
    "site_id": "2415",
    "latitude": 51.4366522,
    "longitude": -2.5792881,
    "formatted_address": "Sylvia Ave, Bristol BS3, UK",
    "geocode_status": "OK"
  },
  {
    "type": "Mobile Enforcement",
    "location": "Talbot Road, Bristol",
    "speed_limit": "20mph",
    "camera_label": null,
    "site_id": "221",
    "latitude": 51.4338809,
    "longitude": -2.5598388,
    "formatted_address": "Talbot Rd, Bristol BS4, UK",
    "geocode_status": "OK"
  },
  {
    "type": "Mobile Enforcement",
    "location": "Tarnock Avenue, Hengrove",
    "speed_limit": "20mph",
    "camera_label": null,
    "site_id": "400",
    "latitude": 51.4201022,
    "longitude": -2.574663,
    "formatted_address": "Tarnock Ave, Bristol BS14, UK",
    "geocode_status": "OK"
  },
  {
    "type": "Mobile Enforcement",
    "location": "Thicket Avenue, Fishponds - 1",
    "speed_limit": "30mph",
    "camera_label": null,
    "site_id": "202",
    "latitude": 51.4710937,
    "longitude": -2.5198343,
    "formatted_address": "1 Thicket Ave, Bristol BS16 4DH, UK",
    "geocode_status": "OK"
  },
  {
    "type": "Mobile Enforcement",
    "location": "Thicket Avenue, Fishponds - 2",
    "speed_limit": "20mph",
    "camera_label": null,
    "site_id": "223",
    "latitude": 51.4708572,
    "longitude": -2.5198858,
    "formatted_address": "2 Thicket Ave, Bristol BS16 4DH, UK",
    "geocode_status": "OK"
  },
  {
    "type": "Mobile Enforcement",
    "location": "Thingwall Park, Bristol (nr jct Huyton Road)",
    "speed_limit": "20mph",
    "camera_label": null,
    "site_id": "245",
    "latitude": 51.4765656,
    "longitude": -2.5440655,
    "formatted_address": "Thingwall Park, Bristol, UK",
    "geocode_status": "OK"
  },
  {
    "type": "Mobile Enforcement",
    "location": "Troopers Hill, St George, Bristol",
    "speed_limit": "20mph",
    "camera_label": null,
    "site_id": "2462",
    "latitude": 51.4551641,
    "longitude": -2.5345638,
    "formatted_address": "Troopers' Hill, Bristol BS5, UK",
    "geocode_status": "OK"
  },
  {
    "type": "Mobile Enforcement",
    "location": "Walsh Avenue, Hengrove, (nr 123 Walsh Ave) (no longer in use)",
    "speed_limit": "30mph",
    "camera_label": null,
    "site_id": "204",
    "latitude": 51.4182121,
    "longitude": -2.5705409,
    "formatted_address": "123 Walsh Ave, Bristol BS14 9SQ, UK",
    "geocode_status": "OK"
  },
  {
    "type": "Mobile Enforcement",
    "location": "Wedmore Vale, Bristol",
    "speed_limit": "20mph",
    "camera_label": null,
    "site_id": "4142",
    "latitude": 51.4331361,
    "longitude": -2.5865476,
    "formatted_address": "Wedmore Vale, Bristol, UK",
    "geocode_status": "OK"
  },
  {
    "type": "Mobile Enforcement",
    "location": "Wellington Hill West, Bristol (outside 57 Wellington Hill West)",
    "speed_limit": "30mph",
    "camera_label": null,
    "site_id": "20",
    "latitude": 51.48961689999999,
    "longitude": -2.5947819,
    "formatted_address": "57 Wellington Hill W, Bristol BS9 4SP, UK",
    "geocode_status": "OK"
  },
  {
    "type": "Mobile Enforcement",
    "location": "Wellington Hill West, Horfield (nr jct B4056 Southmead Road)",
    "speed_limit": "30mph",
    "camera_label": null,
    "site_id": "72",
    "latitude": 51.4907548,
    "longitude": -2.5953349,
    "formatted_address": "Wellington Hill W, Bristol, UK",
    "geocode_status": "OK"
  },
  {
    "type": "Mobile Enforcement",
    "location": "Wessex Avenue, Horfield, Bristol near Filton Avenue",
    "speed_limit": "20mph",
    "camera_label": null,
    "site_id": "195",
    "latitude": 51.4964855,
    "longitude": -2.5731465,
    "formatted_address": "Filton Ave, Bristol, UK",
    "geocode_status": "OK"
  },
  {
    "type": "Mobile Enforcement",
    "location": "Whitchurch Lane, nr Halfacre Lane, Bristol",
    "speed_limit": "20mph",
    "camera_label": null,
    "site_id": "3120",
    "latitude": 51.4056326,
    "longitude": -2.5687812,
    "formatted_address": "Halfacre Ln, Bristol BS14, UK",
    "geocode_status": "OK"
  },
  {
    "type": "Mobile Enforcement",
    "location": "Whitchurch Lane, nr Hawkfield Road, Bristol",
    "speed_limit": "20mph",
    "camera_label": null,
    "site_id": "240",
    "latitude": 51.4097625,
    "longitude": -2.5943953,
    "formatted_address": "Hawkfield Rd, Bristol, UK",
    "geocode_status": "OK"
  },
  {
    "type": "Mobile Enforcement",
    "location": "Whitehall Avenue, nr Alder Drive, Whitehall",
    "speed_limit": "20mph",
    "camera_label": null,
    "site_id": "372",
    "latitude": 51.4643798,
    "longitude": -2.5444141,
    "formatted_address": "Whitehall Ave, Whitehall, Bristol BS5, UK",
    "geocode_status": "OK"
  },
  {
    "type": "Mobile Enforcement",
    "location": "Whiteway Road, St George, Bristol",
    "speed_limit": "30mph",
    "camera_label": null,
    "site_id": "2445",
    "latitude": 51.4640573,
    "longitude": -2.5300809,
    "formatted_address": "Whiteway Rd, Bristol, UK",
    "geocode_status": "OK"
  },
  {
    "type": "Mobile Enforcement",
    "location": "Whitland Road, Bristol (nr 104 Whitland Road)",
    "speed_limit": "20mph",
    "camera_label": null,
    "site_id": "87",
    "latitude": 51.41309159999999,
    "longitude": -2.6040465,
    "formatted_address": "104 Whitland Rd, Bristol BS13 9QL, UK",
    "geocode_status": "OK"
  },
  {
    "type": "Mobile Enforcement",
    "location": "Whittucks Road, Hanham",
    "speed_limit": "30mph",
    "camera_label": null,
    "site_id": "284",
    "latitude": 51.4428549,
    "longitude": -2.5133295,
    "formatted_address": "Whittucks Rd, Hanham, Bristol BS15, UK",
    "geocode_status": "OK"
  },
  {
    "type": "Mobile Enforcement",
    "location": "Wick Road, Bristol",
    "speed_limit": "20mph",
    "camera_label": null,
    "site_id": "3167",
    "latitude": 51.4418188,
    "longitude": -2.5510397,
    "formatted_address": "Wick Rd, Brislington, Bristol BS4, UK",
    "geocode_status": "OK"
  },
  {
    "type": "Mobile Enforcement",
    "location": "Wingfield Road, Bristol",
    "speed_limit": "20mph",
    "camera_label": null,
    "site_id": "257",
    "latitude": 51.4351218,
    "longitude": -2.5844122,
    "formatted_address": "Wingfield Rd, Bristol BS3, UK",
    "geocode_status": "OK"
  },
  {
    "type": "Mobile Enforcement",
    "location": "Winterbourne Road",
    "speed_limit": "40mph",
    "camera_label": null,
    "site_id": "189",
    "latitude": 51.5223243,
    "longitude": -2.537582,
    "formatted_address": "Winterbourne Rd, Bristol, UK",
    "geocode_status": "OK"
  },
  {
    "type": "Mobile Enforcement",
    "location": "Woodland Road, Bristol",
    "speed_limit": "20mph",
    "camera_label": null,
    "site_id": "53",
    "latitude": 51.458724,
    "longitude": -2.6038368,
    "formatted_address": "Woodland Rd, Bristol, UK",
    "geocode_status": "OK"
  },
  {
    "type": "Mobile Enforcement",
    "location": "Woodland Way, Hillfields",
    "speed_limit": "20mph",
    "camera_label": null,
    "site_id": "411",
    "latitude": 51.4713192,
    "longitude": -2.5151172,
    "formatted_address": "Woodland Way, Bristol, UK",
    "geocode_status": "OK"
  },
  {
    "type": "Red Light Camera",
    "location": "A37 Wells Road > A37 Wells Road/B3119 West Town Lane/Hengrove Lane (was 'Happy Landings' site)",
    "speed_limit": null,
    "camera_label": "Redlight",
    "site_id": "10100017",
    "latitude": 51.42606010000001,
    "longitude": -2.5639883,
    "formatted_address": "City, Bristol BS14 9DL, UK",
    "geocode_status": "OK"
  },
  {
    "type": "Red Light Camera",
    "location": "A38 Bridgwater Road > A38 Bedminster Down/Bishopsworth Road",
    "speed_limit": null,
    "camera_label": "Redlight",
    "site_id": "10100032",
    "latitude": 51.5928546,
    "longitude": -2.5251101,
    "formatted_address": "A38, United Kingdom",
    "geocode_status": "OK"
  },
  {
    "type": "Red Light Camera",
    "location": "A38 Filton Road > Toronto Road/Monks Park Avenue",
    "speed_limit": null,
    "camera_label": "Redlight",
    "site_id": "10100046",
    "latitude": 51.4969291,
    "longitude": -2.5809071,
    "formatted_address": "Filton Rd & Toronto Rd, Bristol BS7 0XX, UK",
    "geocode_status": "OK"
  },
  {
    "type": "Red Light Camera",
    "location": "A4018 Falcondale Road > B4055 Henbury Road/A4018 Falcondale Road",
    "speed_limit": null,
    "camera_label": "Redlight",
    "site_id": "10100024",
    "latitude": 51.496296,
    "longitude": -2.619443,
    "formatted_address": "Henbury Road, Bristol BS9 3HJ, UK",
    "geocode_status": "OK"
  },
  {
    "type": "Red Light Camera",
    "location": "A4018 Whiteladies Road > Tyndall's Park Road/St Paul's Road/A4018 Whiteladies Road",
    "speed_limit": null,
    "camera_label": "Redlight",
    "site_id": "10100033",
    "latitude": 51.4579031,
    "longitude": -2.609091,
    "formatted_address": "A4018 & Whiteladies Road, Clifton, Bristol BS8 1PD, UK",
    "geocode_status": "OK"
  },
  {
    "type": "Red Light Camera",
    "location": "A4032 Bond Street (WB), jct A4044 Bond Street South > A4044 Bond Street",
    "speed_limit": null,
    "camera_label": "Redlight",
    "site_id": "10100054",
    "latitude": 51.4597708,
    "longitude": -2.5840761,
    "formatted_address": "A4032 & Bond Street, Bristol BS2 9AP, UK",
    "geocode_status": "OK"
  },
  {
    "type": "Red Light Camera",
    "location": "A4032 Newfoundland Street (WB), jct Houlton Street > A4044 Bond Street",
    "speed_limit": null,
    "camera_label": "Redlight",
    "site_id": "10100053",
    "latitude": 51.4597708,
    "longitude": -2.5840761,
    "formatted_address": "A4044 & Bond Street, Bristol BS2 9AP, UK",
    "geocode_status": "OK"
  },
  {
    "type": "Red Light Camera",
    "location": "A4044 Bond Street (Eastbound Nearside/Offside) > A4032 Newfoundland Circus",
    "speed_limit": null,
    "camera_label": "Redlight",
    "site_id": "10100071",
    "latitude": 51.4597708,
    "longitude": -2.5840761,
    "formatted_address": "A4044 & Bond Street, Bristol BS2 9AP, UK",
    "geocode_status": "OK"
  },
  {
    "type": "Red Light Camera",
    "location": "A4044 Bond Street South (NB), jct A4032/A4044 Bond Street > A4032 Newfoundland Street",
    "speed_limit": null,
    "camera_label": "Redlight",
    "site_id": "10100055",
    "latitude": 51.4597708,
    "longitude": -2.5840761,
    "formatted_address": "A4032 & Bond Street, Bristol BS2 9AP, UK",
    "geocode_status": "OK"
  },
  {
    "type": "Red Light Camera",
    "location": "A4044 Temple Way Underpass (Righthand/Lefthand Northbound Nearside) > Bond Street South",
    "speed_limit": null,
    "camera_label": "Redlight",
    "site_id": "10100025",
    "latitude": 51.454899,
    "longitude": -2.5835055,
    "formatted_address": "Temple Way, Bristol BS2 0EQ, UK",
    "geocode_status": "OK"
  },
  {
    "type": "Red Light Camera",
    "location": "A4174 Airport Rd, nr jct Bamfield > A4174 Hengrove Way",
    "speed_limit": null,
    "camera_label": "Redlight",
    "site_id": "10100011",
    "latitude": 51.4215576,
    "longitude": -2.5799106,
    "formatted_address": "A4174 & Bamfield, Bristol BS4 1FU, UK",
    "geocode_status": "OK"
  },
  {
    "type": "Red Light Camera",
    "location": "A4174 Hartcliffe Way > Novers Lane/A4174 Hartcliffe Way",
    "speed_limit": null,
    "camera_label": "Redlight",
    "site_id": "10100086",
    "latitude": 51.4185915,
    "longitude": -2.5999583,
    "formatted_address": "Hartcliffe Way & Novers Ln, Bristol BS4 1QL, UK",
    "geocode_status": "OK"
  },
  {
    "type": "Red Light Camera",
    "location": "A4174 Hengrove Way, nr jct Creswicke Road > A4174 Airport Road",
    "speed_limit": null,
    "camera_label": "Redlight",
    "site_id": "10100010",
    "latitude": 51.4213157,
    "longitude": -2.5807853,
    "formatted_address": "A4174 & Hengrove Way, Bristol BS4 1UE, UK",
    "geocode_status": "OK"
  },
  {
    "type": "Red Light Camera",
    "location": "A420 Church Rd, Redfield > Chalks Road/A420 Church Road",
    "speed_limit": null,
    "camera_label": "Redlight",
    "site_id": "10100012",
    "latitude": 51.4596716,
    "longitude": -2.5509038,
    "formatted_address": "Chalks Rd & A420, Redfield, Bristol BS5 9HX, UK",
    "geocode_status": "OK"
  },
  {
    "type": "Red Light Camera",
    "location": "A4320 Easton Way (Northbound), nr jct Stapleton Road > A4320 Easton Way",
    "speed_limit": null,
    "camera_label": "Redlight",
    "site_id": "10100022",
    "latitude": 51.46364380000001,
    "longitude": -2.5712587,
    "formatted_address": "Stapleton Road & A4320, Easton, Bristol BS5 0PA, UK",
    "geocode_status": "OK"
  },
  {
    "type": "Red Light Camera",
    "location": "A4320 Easton Way (southbound), Bristol > St Philips Cswy",
    "speed_limit": null,
    "camera_label": "Redlight",
    "site_id": "10100007",
    "latitude": 51.4629128,
    "longitude": -2.571003,
    "formatted_address": "Easton Way, Bristol BS5, UK",
    "geocode_status": "OK"
  },
  {
    "type": "Red Light Camera",
    "location": "Ingleside Road, jct B4048 Lodge Road",
    "speed_limit": null,
    "camera_label": "Redlight",
    "site_id": "10100070",
    "latitude": 51.46695829999999,
    "longitude": -2.5143185,
    "formatted_address": "Ingleside Road & B4048, Bristol BS15 1JA, UK",
    "geocode_status": "OK"
  },
  {
    "type": "Red Light Camera",
    "location": "Stoke Hill > Stoke Road/Saville Road",
    "speed_limit": null,
    "camera_label": "Redlight",
    "site_id": "10100026",
    "latitude": 51.4744012,
    "longitude": -2.6243308,
    "formatted_address": "Stoke Hill & Stoke Rd, Bristol BS9 1FG, UK",
    "geocode_status": "OK"
  },
  {
    "type": "Red Light Camera",
    "location": "Wessex Avenue > Filton Avenue/Locklease Road",
    "speed_limit": null,
    "camera_label": "Redlight",
    "site_id": "10100045",
    "latitude": 51.49137899999999,
    "longitude": -2.580759,
    "formatted_address": "Wessex Avenue, Bristol BS7 0DB, UK",
    "geocode_status": "OK"
  }
]